[{"cityNameEn":"Xi'an","places":[{"name":"老孙家饭庄","nameEn":"Lao Sun Jia","category":"FOOD","lat":34.2618,"lng":108.9540,"description":"Century-old restaurant famous for yangrou paomo","priceLevel":2},{"name":"同盛祥饭庄","nameEn":"Tong Sheng Xiang","category":"FOOD","lat":34.2675,"lng":108.9389,"description":"Historic eatery known for beef and mutton paomo","priceLevel":2},{"name":"贾三灌汤包子","nameEn":"Jia San Soup Dumplings","category":"FOOD","lat":34.2611,"lng":108.9621,"description":"Famous Muslim Quarter soup-filled steamed buns","priceLevel":2},{"name":"回民街","nameEn":"Muslim Quarter Food Street","category":"FOOD","lat":34.2658,"lng":108.9425,"description":"Iconic street packed with Xi'an snacks","priceLevel":2},{"name":"德发长饺子馆","nameEn":"Defachang Dumpling Restaurant","category":"FOOD","lat":34.2620,"lng":108.9398,"description":"Renowned for its lavish dumpling banquet","priceLevel":3},{"name":"樊记腊汁肉夹馍","nameEn":"Fanji Roujiamo","category":"FOOD","lat":34.2585,"lng":108.9450,"description":"Legendary shop for Chinese hamburger roujiamo","priceLevel":1},{"name":"西安饭庄","nameEn":"Xi'an Restaurant","category":"FOOD","lat":34.2640,"lng":108.9505,"description":"Classic venue serving traditional Shaanxi cuisine","priceLevel":3},{"name":"魏家凉皮","nameEn":"Weijia Liangpi","category":"FOOD","lat":34.2600,"lng":108.9480,"description":"Popular chain for cold skin noodles","priceLevel":1},{"name":"老白家泡馍","nameEn":"Lao Bai Jia Paomo","category":"FOOD","lat":34.2665,"lng":108.9410,"description":"Beloved Muslim Quarter mutton paomo spot","priceLevel":2},{"name":"子午路张记肉夹馍","nameEn":"Ziwu Lu Zhang Ji","category":"FOOD","lat":34.2305,"lng":108.9290,"description":"Famous local roujiamo and liangpi shop","priceLevel":1},{"name":"永宁门biangbiang面","nameEn":"Biangbiang Noodles","category":"FOOD","lat":34.2530,"lng":108.9460,"description":"Wide hand-pulled belt noodles of Shaanxi","priceLevel":1},{"name":"大唐不夜城小吃","nameEn":"Tang Dynasty Night City Snacks","category":"FOOD","lat":34.2210,"lng":108.9640,"description":"Bustling night district full of street food","priceLevel":2},{"name":"兵马俑","nameEn":"Terracotta Army","category":"ATTRACTION","lat":34.3845,"lng":109.2785,"description":"Qin emperor's vast army of clay soldiers","priceLevel":2},{"name":"西安城墙","nameEn":"Xi'an City Wall","category":"ATTRACTION","lat":34.2614,"lng":108.9398,"description":"Best-preserved ancient city wall in China","priceLevel":2},{"name":"大雁塔","nameEn":"Giant Wild Goose Pagoda","category":"ATTRACTION","lat":34.2186,"lng":108.9640,"description":"Tang dynasty Buddhist pagoda and landmark","priceLevel":2},{"name":"钟楼","nameEn":"Bell Tower","category":"ATTRACTION","lat":34.2611,"lng":108.9530,"description":"Ming dynasty tower at city center","priceLevel":1},{"name":"鼓楼","nameEn":"Drum Tower","category":"ATTRACTION","lat":34.2625,"lng":108.9470,"description":"Historic drum tower beside Muslim Quarter","priceLevel":1},{"name":"陕西历史博物馆","nameEn":"Shaanxi History Museum","category":"ATTRACTION","lat":34.2220,"lng":108.9430,"description":"Premier museum of ancient Chinese artifacts","priceLevel":1},{"name":"大唐芙蓉园","nameEn":"Tang Paradise","category":"ATTRACTION","lat":34.2055,"lng":108.9760,"description":"Tang-themed garden with lakes and shows","priceLevel":2},{"name":"小雁塔","nameEn":"Small Wild Goose Pagoda","category":"ATTRACTION","lat":34.2410,"lng":108.9400,"description":"Elegant Tang pagoda in tranquil grounds","priceLevel":1},{"name":"华清宫","nameEn":"Huaqing Palace","category":"ATTRACTION","lat":34.3620,"lng":109.2080,"description":"Ancient hot springs and imperial retreat","priceLevel":2},{"name":"碑林博物馆","nameEn":"Stele Forest Museum","category":"ATTRACTION","lat":34.2540,"lng":108.9560,"description":"Collection of ancient stone tablets and calligraphy","priceLevel":1},{"name":"大明宫国家遗址公园","nameEn":"Daming Palace Ruins Park","category":"ATTRACTION","lat":34.2945,"lng":108.9610,"description":"Vast ruins of a Tang imperial palace","priceLevel":2},{"name":"永兴坊","nameEn":"Yongxingfang Food Park","category":"ATTRACTION","lat":34.2655,"lng":108.9620,"description":"Heritage district showcasing Shaanxi food culture","priceLevel":2}]},{"cityNameEn":"Lanzhou","places":[{"name":"马子禄牛肉面","nameEn":"Mazilu Beef Noodles","category":"FOOD","lat":36.0560,"lng":103.8360,"description":"Iconic Lanzhou hand-pulled beef noodle shop","priceLevel":1},{"name":"吾穆勒牛肉面","nameEn":"Wumule Beef Noodles","category":"FOOD","lat":36.0680,"lng":103.8520,"description":"Beloved local spot for ramen-style beef noodles","priceLevel":1},{"name":"金鼎牛肉面","nameEn":"Jinding Beef Noodles","category":"FOOD","lat":36.0610,"lng":103.8400,"description":"Well-known chain serving classic beef noodles","priceLevel":1},{"name":"磨沟沿牛肉面","nameEn":"Mogouyan Beef Noodles","category":"FOOD","lat":36.0595,"lng":103.8290,"description":"Famous neighborhood beef noodle institution","priceLevel":1},{"name":"安泊尔牛肉面","nameEn":"Anboer Beef Noodles","category":"FOOD","lat":36.0720,"lng":103.8600,"description":"Popular modern Lanzhou beef noodle brand","priceLevel":1},{"name":"正宁路夜市","nameEn":"Zhengning Road Night Market","category":"FOOD","lat":36.0570,"lng":103.8330,"description":"Lively night market with local street snacks","priceLevel":2},{"name":"杜记甜食","nameEn":"Duji Desserts","category":"FOOD","lat":36.0565,"lng":103.8345,"description":"Traditional shop famous for sweet treats","priceLevel":1},{"name":"放哈咖啡","nameEn":"Fangha Cafe","category":"FOOD","lat":36.0590,"lng":103.8310,"description":"Local cafe known for milk tea and snacks","priceLevel":2},{"name":"马有布牛肉面","nameEn":"Mayoubu Beef Noodles","category":"FOOD","lat":36.0640,"lng":103.8470,"description":"Time-honored brand of Lanzhou beef noodles","priceLevel":1},{"name":"阿西娅手抓羊肉","nameEn":"Axiya Hand-Grabbed Lamb","category":"FOOD","lat":36.0860,"lng":103.8730,"description":"Renowned restaurant for hand-grabbed mutton","priceLevel":3},{"name":"占国牛奶鸡蛋醪糟","nameEn":"Zhanguo Milk Egg Laozao","category":"FOOD","lat":36.0568,"lng":103.8338,"description":"Famous stall for sweet fermented rice drink","priceLevel":1},{"name":"高担酿皮","nameEn":"Gaodan Niangpi","category":"FOOD","lat":36.0575,"lng":103.8355,"description":"Classic stall serving chewy cold niangpi","priceLevel":1},{"name":"黄河铁桥（中山桥）","nameEn":"Zhongshan Iron Bridge","category":"ATTRACTION","lat":36.0640,"lng":103.8300,"description":"Historic first iron bridge over Yellow River","priceLevel":1},{"name":"白塔山公园","nameEn":"White Pagoda Mountain Park","category":"ATTRACTION","lat":36.0700,"lng":103.8290,"description":"Hilltop park with white pagoda and views","priceLevel":1},{"name":"黄河母亲雕塑","nameEn":"Yellow River Mother Statue","category":"ATTRACTION","lat":36.0680,"lng":103.7950,"description":"Iconic sculpture symbolizing the Yellow River","priceLevel":1},{"name":"甘肃省博物馆","nameEn":"Gansu Provincial Museum","category":"ATTRACTION","lat":36.0810,"lng":103.7720,"description":"Home to the famous Flying Horse bronze","priceLevel":1},{"name":"五泉山公园","nameEn":"Five Springs Mountain Park","category":"ATTRACTION","lat":36.0420,"lng":103.8470,"description":"Ancient temples and springs on a hillside","priceLevel":1},{"name":"水车博览园","nameEn":"Waterwheel Park","category":"ATTRACTION","lat":36.0610,"lng":103.8640,"description":"Park showcasing giant traditional waterwheels","priceLevel":1},{"name":"黄河风情线","nameEn":"Yellow River Scenic Line","category":"ATTRACTION","lat":36.0660,"lng":103.8200,"description":"Riverside promenade along the Yellow River","priceLevel":1},{"name":"兰州碑林","nameEn":"Lanzhou Stele Forest","category":"ATTRACTION","lat":36.0720,"lng":103.8230,"description":"Hilltop museum of stone calligraphy steles","priceLevel":1},{"name":"甘肃科技馆","nameEn":"Gansu Science Museum","category":"ATTRACTION","lat":36.1010,"lng":103.6850,"description":"Modern interactive science and technology museum","priceLevel":1},{"name":"兴隆山","nameEn":"Xinglong Mountain","category":"ATTRACTION","lat":35.7560,"lng":104.0900,"description":"Forested mountain reserve near Lanzhou","priceLevel":2},{"name":"八路军兰州办事处","nameEn":"Eighth Route Army Office Memorial","category":"ATTRACTION","lat":36.0590,"lng":103.8410,"description":"Revolutionary history memorial site","priceLevel":1},{"name":"金城关","nameEn":"Jincheng Pass Cultural Park","category":"ATTRACTION","lat":36.0665,"lng":103.8275,"description":"Reconstructed ancient pass with cultural museums","priceLevel":1}]},{"cityNameEn":"Urumqi","places":[{"name":"新疆国际大巴扎","nameEn":"Xinjiang Grand Bazaar","category":"FOOD","lat":43.7760,"lng":87.6280,"description":"Sprawling bazaar with Uyghur food and goods","priceLevel":2},{"name":"五一夜市","nameEn":"Wuyi Night Market","category":"FOOD","lat":43.7980,"lng":87.6150,"description":"Popular night market for grilled lamb skewers","priceLevel":2},{"name":"海尔巴格餐厅","nameEn":"Herbag Restaurant","category":"FOOD","lat":43.8000,"lng":87.6020,"description":"Well-known restaurant for Xinjiang cuisine","priceLevel":3},{"name":"五月花餐厅","nameEn":"Mayflower Restaurant","category":"FOOD","lat":43.8240,"lng":87.6080,"description":"Upscale Uyghur dining with dinner shows","priceLevel":3},{"name":"阿凡提餐厅","nameEn":"Avanti Restaurant","category":"FOOD","lat":43.8190,"lng":87.6200,"description":"Classic spot for polo and lamb dishes","priceLevel":2},{"name":"塔西肉孜烤肉","nameEn":"Taxiruzi Kebab","category":"FOOD","lat":43.8050,"lng":87.5970,"description":"Famous local grilled lamb kebab eatery","priceLevel":2},{"name":"米泉马家大盘鸡","nameEn":"Majia Big Plate Chicken","category":"FOOD","lat":43.8470,"lng":87.6520,"description":"Renowned for spicy Xinjiang big plate chicken","priceLevel":2},{"name":"伊面馆拌面","nameEn":"Yimianguan Laghman","category":"FOOD","lat":43.8100,"lng":87.6100,"description":"Popular shop for hand-pulled laghman noodles","priceLevel":2},{"name":"巷子里手抓饭","nameEn":"Xiangzili Polo","category":"FOOD","lat":43.8210,"lng":87.6160,"description":"Cozy spot serving traditional Uyghur pilaf","priceLevel":2},{"name":"老转村中国菜","nameEn":"Laozhuancun Restaurant","category":"FOOD","lat":43.8350,"lng":87.5900,"description":"Garden restaurant blending Xinjiang and Chinese food","priceLevel":3},{"name":"馕坑烤肉店","nameEn":"Nang Pit Kebab","category":"FOOD","lat":43.7920,"lng":87.6240,"description":"Tandoor-style roasted lamb specialty shop","priceLevel":2},{"name":"血站凉皮","nameEn":"Xuezhan Liangpi","category":"FOOD","lat":43.8030,"lng":87.6190,"description":"Local favorite for spicy cold noodles","priceLevel":1},{"name":"红山公园","nameEn":"Hongshan Park","category":"ATTRACTION","lat":43.8160,"lng":87.6090,"description":"Hilltop park with pagoda and city views","priceLevel":1},{"name":"新疆维吾尔自治区博物馆","nameEn":"Xinjiang Regional Museum","category":"ATTRACTION","lat":43.8290,"lng":87.5790,"description":"Museum famed for ancient Tarim mummies","priceLevel":1},{"name":"天山天池","nameEn":"Tianshan Tianchi Lake","category":"ATTRACTION","lat":43.8880,"lng":88.1180,"description":"Alpine lake beneath snowy Bogda Peak","priceLevel":3},{"name":"南山牧场","nameEn":"Nanshan Pasture","category":"ATTRACTION","lat":43.4500,"lng":87.4000,"description":"Mountain grasslands with forests and waterfalls","priceLevel":2},{"name":"新疆国际大巴扎观光塔","nameEn":"Grand Bazaar Tower","category":"ATTRACTION","lat":43.7755,"lng":87.6285,"description":"Landmark tower over the Grand Bazaar","priceLevel":1},{"name":"水磨沟公园","nameEn":"Shuimogou Park","category":"ATTRACTION","lat":43.8330,"lng":87.6470,"description":"Scenic park with hot springs and greenery","priceLevel":1},{"name":"人民公园","nameEn":"People's Park","category":"ATTRACTION","lat":43.7990,"lng":87.6010,"description":"Central park with lake and pavilions","priceLevel":1},{"name":"陕西大寺","nameEn":"Shaanxi Grand Mosque","category":"ATTRACTION","lat":43.7870,"lng":87.6210,"description":"Historic mosque blending Chinese and Islamic styles","priceLevel":1},{"name":"新疆古生态园","nameEn":"Xinjiang Ancient Ecology Park","category":"ATTRACTION","lat":43.8600,"lng":87.5650,"description":"Park with ancient trees and Akhal-Teke horses","priceLevel":2},{"name":"达坂城风电场","nameEn":"Dabancheng Wind Farm","category":"ATTRACTION","lat":43.3630,"lng":88.3110,"description":"Vast wind turbine fields on the plateau","priceLevel":1},{"name":"燕儿窝风景区","nameEn":"Yan'erwo Scenic Area","category":"ATTRACTION","lat":43.7700,"lng":87.6320,"description":"Riverside scenic area with willows and trails","priceLevel":1},{"name":"乌鲁木齐文庙","nameEn":"Urumqi Confucius Temple","category":"ATTRACTION","lat":43.8080,"lng":87.6230,"description":"Restored Confucian temple in the old city","priceLevel":1}]},{"cityNameEn":"Yinchuan","places":[{"name":"国强手抓","nameEn":"Guoqiang Hand-Grabbed Lamb","category":"FOOD","lat":38.4790,"lng":106.2530,"description":"Famous restaurant for Ningxia hand-grabbed mutton","priceLevel":2},{"name":"老毛手抓","nameEn":"Laomao Hand-Grabbed Lamb","category":"FOOD","lat":38.4920,"lng":106.2410,"description":"Renowned brand for tender hand-grabbed lamb","priceLevel":2},{"name":"迎宾楼清真饭店","nameEn":"Yingbinlou Halal Restaurant","category":"FOOD","lat":38.4760,"lng":106.2280,"description":"Classic halal venue for Ningxia cuisine","priceLevel":2},{"name":"德隆楼","nameEn":"Delonglou Restaurant","category":"FOOD","lat":38.4840,"lng":106.2350,"description":"Popular spot for local lamb dishes","priceLevel":2},{"name":"宁夏特色羊杂碎","nameEn":"Ningxia Lamb Offal Soup","category":"FOOD","lat":38.4880,"lng":106.2460,"description":"Beloved breakfast lamb offal soup eatery","priceLevel":1},{"name":"怀远夜市","nameEn":"Huaiyuan Night Market","category":"FOOD","lat":38.4960,"lng":106.0890,"description":"Bustling night market near the university","priceLevel":1},{"name":"清和小吃街","nameEn":"Qinghe Snack Street","category":"FOOD","lat":38.4770,"lng":106.2390,"description":"Lively street lined with local snacks","priceLevel":1},{"name":"宁夏饭店","nameEn":"Ningxia Hotel Restaurant","category":"FOOD","lat":38.4810,"lng":106.2620,"description":"Established restaurant serving regional specialties","priceLevel":3},{"name":"羊肉臊子面馆","nameEn":"Lamb Saozi Noodles","category":"FOOD","lat":38.4830,"lng":106.2440,"description":"Local shop for lamb minced-topping noodles","priceLevel":1},{"name":"丁记羊肉小揪面","nameEn":"Dingji Lamb Hand-Pinched Noodles","category":"FOOD","lat":38.4900,"lng":106.2300,"description":"Famous for lamb hand-pinched noodle bowls","priceLevel":1},{"name":"黄渠桥羊羔肉","nameEn":"Huangquqiao Lamb","category":"FOOD","lat":38.4730,"lng":106.2480,"description":"Specialty braised young lamb restaurant","priceLevel":2},{"name":"枸杞甜品店","nameEn":"Goji Berry Dessert Shop","category":"FOOD","lat":38.4855,"lng":106.2370,"description":"Local desserts featuring Ningxia goji berries","priceLevel":1},{"name":"西夏王陵","nameEn":"Western Xia Imperial Tombs","category":"ATTRACTION","lat":38.5230,"lng":105.9870,"description":"Mysterious earthen tombs of the Western Xia","priceLevel":2},{"name":"镇北堡西部影城","nameEn":"Zhenbeibao Western Film Studio","category":"ATTRACTION","lat":38.6420,"lng":105.9560,"description":"Fortress film set for famous Chinese movies","priceLevel":2},{"name":"贺兰山岩画","nameEn":"Helan Mountain Rock Art","category":"ATTRACTION","lat":38.7160,"lng":105.9320,"description":"Ancient petroglyphs carved on mountain cliffs","priceLevel":2},{"name":"南关清真大寺","nameEn":"Nanguan Grand Mosque","category":"ATTRACTION","lat":38.4690,"lng":106.2820,"description":"Iconic domed mosque in central Yinchuan","priceLevel":1},{"name":"宁夏博物馆","nameEn":"Ningxia Museum","category":"ATTRACTION","lat":38.4870,"lng":106.2580,"description":"Regional museum of Western Xia history","priceLevel":1},{"name":"鼓楼","nameEn":"Yinchuan Drum Tower","category":"ATTRACTION","lat":38.4780,"lng":106.2730,"description":"Historic drum tower in the old town","priceLevel":1},{"name":"海宝塔","nameEn":"Haibao Pagoda","category":"ATTRACTION","lat":38.5060,"lng":106.2660,"description":"Ancient Buddhist pagoda with tiered design","priceLevel":1},{"name":"沙湖","nameEn":"Sand Lake","category":"ATTRACTION","lat":38.8060,"lng":106.3380,"description":"Wetland of lakes, reeds, and sand dunes","priceLevel":2},{"name":"水洞沟","nameEn":"Shuidonggou","category":"ATTRACTION","lat":38.3170,"lng":106.5050,"description":"Paleolithic site with canyons and tunnels","priceLevel":2},{"name":"贺兰山国家森林公园","nameEn":"Helan Mountain Forest Park","category":"ATTRACTION","lat":38.6890,"lng":105.8950,"description":"Mountain park with forests and wildlife","priceLevel":2},{"name":"玉皇阁","nameEn":"Yuhuang Pavilion","category":"ATTRACTION","lat":38.4775,"lng":106.2750,"description":"Ornate ancient temple pavilion downtown","priceLevel":1},{"name":"览山公园","nameEn":"Lanshan Park","category":"ATTRACTION","lat":38.4520,"lng":106.2380,"description":"Park with a Roman-style amphitheater","priceLevel":1}]},{"cityNameEn":"Xining","places":[{"name":"马忠食府","nameEn":"Mazhong Food Mansion","category":"FOOD","lat":36.6230,"lng":101.7740,"description":"Famous restaurant for Qinghai halal specialties","priceLevel":2},{"name":"益鑫斋牛肉面","nameEn":"Yixinzhai Beef Noodles","category":"FOOD","lat":36.6190,"lng":101.7800,"description":"Popular spot for Qinghai beef noodles","priceLevel":1},{"name":"王府井小吃街","nameEn":"Wangfujing Snack Street","category":"FOOD","lat":36.6160,"lng":101.7760,"description":"Lively street with local Xining snacks","priceLevel":1},{"name":"莫家街美食街","nameEn":"Mojia Street Food Street","category":"FOOD","lat":36.6150,"lng":101.7790,"description":"Historic food street in central Xining","priceLevel":1},{"name":"高原明珠酿皮","nameEn":"Gaoyuan Niangpi","category":"FOOD","lat":36.6210,"lng":101.7720,"description":"Local favorite for chewy cold niangpi","priceLevel":1},{"name":"骆驼羊肉手抓","nameEn":"Luotuo Hand-Grabbed Lamb","category":"FOOD","lat":36.6080,"lng":101.7850,"description":"Renowned restaurant for hand-grabbed mutton","priceLevel":2},{"name":"赛博尔牦牛肉","nameEn":"Saiboer Yak Beef","category":"FOOD","lat":36.6260,"lng":101.7680,"description":"Specialty restaurant serving Qinghai yak meat","priceLevel":3},{"name":"水井巷市场","nameEn":"Shuijingxiang Market","category":"FOOD","lat":36.6170,"lng":101.7770,"description":"Bustling market with snacks and dried goods","priceLevel":1},{"name":"德禄酸奶","nameEn":"Delu Yogurt","category":"FOOD","lat":36.6200,"lng":101.7755,"description":"Famous shop for thick Qinghai yogurt","priceLevel":1},{"name":"尕面片馆","nameEn":"Ga Mianpian Noodles","category":"FOOD","lat":36.6140,"lng":101.7810,"description":"Cozy spot for Qinghai torn noodle soup","priceLevel":1},{"name":"羊肠面老店","nameEn":"Lamb Intestine Noodles","category":"FOOD","lat":36.6230,"lng":101.7820,"description":"Traditional eatery for lamb intestine noodles","priceLevel":1},{"name":"藏家牦牛酸奶坊","nameEn":"Tibetan Yak Yogurt House","category":"FOOD","lat":36.6100,"lng":101.7700,"description":"Tibetan-style yak milk yogurt and tea","priceLevel":1},{"name":"塔尔寺","nameEn":"Kumbum Monastery","category":"ATTRACTION","lat":36.4900,"lng":101.5750,"description":"Major Tibetan Buddhist monastery near Xining","priceLevel":2},{"name":"东关清真大寺","nameEn":"Dongguan Grand Mosque","category":"ATTRACTION","lat":36.6180,"lng":101.7960,"description":"One of northwest China's largest mosques","priceLevel":1},{"name":"青海省博物馆","nameEn":"Qinghai Provincial Museum","category":"ATTRACTION","lat":36.6280,"lng":101.7620,"description":"Museum of Qinghai history and culture","priceLevel":1},{"name":"马步芳公馆","nameEn":"Ma Bufang Mansion","category":"ATTRACTION","lat":36.6160,"lng":101.7910,"description":"Ornate jade-decorated warlord-era mansion","priceLevel":1},{"name":"南山公园","nameEn":"Nanshan Park","category":"ATTRACTION","lat":36.6010,"lng":101.7780,"description":"Hillside park overlooking the city","priceLevel":1},{"name":"北山土楼观","nameEn":"Beishan Tulou Temple","category":"ATTRACTION","lat":36.6350,"lng":101.7830,"description":"Cliffside temple complex on North Mountain","priceLevel":1},{"name":"青海藏文化博物院","nameEn":"Tibetan Culture Museum","category":"ATTRACTION","lat":36.6520,"lng":101.7480,"description":"Museum showcasing Tibetan art and medicine","priceLevel":2},{"name":"日月山","nameEn":"Riyue Mountain","category":"ATTRACTION","lat":36.4140,"lng":101.0470,"description":"Historic mountain pass on Tang-Tibet road","priceLevel":2},{"name":"人民公园","nameEn":"Xining People's Park","category":"ATTRACTION","lat":36.6190,"lng":101.7600,"description":"Central park with lake and gardens","priceLevel":1},{"name":"丹噶尔古城","nameEn":"Dangar Ancient Town","category":"ATTRACTION","lat":36.4830,"lng":101.2580,"description":"Historic trading town on the plateau","priceLevel":1},{"name":"植物园","nameEn":"Xining Botanical Garden","category":"ATTRACTION","lat":36.6420,"lng":101.7900,"description":"Plateau botanical garden on North Mountain","priceLevel":1},{"name":"中华福运轮","nameEn":"Chinese Fortune Wheel","category":"ATTRACTION","lat":36.6090,"lng":101.7830,"description":"Giant golden prayer wheel by the river","priceLevel":1}]},{"cityNameEn":"Hohhot","places":[{"name":"格日勒阿妈奶茶馆","nameEn":"Gerile Ama Milk Tea House","category":"FOOD","lat":40.8470,"lng":111.6620,"description":"Famous restaurant for Mongolian milk tea fare","priceLevel":2},{"name":"西贝莜面村","nameEn":"Xibei Youmian Village","category":"FOOD","lat":40.8420,"lng":111.7350,"description":"Popular chain for oat noodle dishes","priceLevel":2},{"name":"老绥元烧麦","nameEn":"Laosuiyuan Shaomai","category":"FOOD","lat":40.8120,"lng":111.6580,"description":"Time-honored shop for mutton shaomai dumplings","priceLevel":2},{"name":"麦香村烧麦","nameEn":"Maixiangcun Shaomai","category":"FOOD","lat":40.8100,"lng":111.6520,"description":"Classic eatery famed for steamed shaomai","priceLevel":2},{"name":"蒙古大营","nameEn":"Mongolian Camp Restaurant","category":"FOOD","lat":40.8650,"lng":111.7200,"description":"Yurt-style dining with roast whole lamb","priceLevel":3},{"name":"莫尼山非遗小镇","nameEn":"Monishan Heritage Food Town","category":"FOOD","lat":40.7850,"lng":111.5200,"description":"Heritage town with Mongolian food and crafts","priceLevel":2},{"name":"小肥羊火锅","nameEn":"Little Sheep Hot Pot","category":"FOOD","lat":40.8390,"lng":111.7180,"description":"Origin city of the famous lamb hotpot","priceLevel":2},{"name":"刀刀手把肉","nameEn":"Daodao Hand-Held Mutton","category":"FOOD","lat":40.8500,"lng":111.7050,"description":"Restaurant serving traditional hand-held mutton","priceLevel":2},{"name":"塞上老街小吃","nameEn":"Saishang Old Street Snacks","category":"FOOD","lat":40.8120,"lng":111.6530,"description":"Old street lined with local snacks","priceLevel":1},{"name":"蒙亮风干牛肉","nameEn":"Mengliang Air-Dried Beef","category":"FOOD","lat":40.8430,"lng":111.7280,"description":"Shop famed for air-dried Mongolian beef","priceLevel":2},{"name":"额尔敦肉业手把肉","nameEn":"Erdun Hand-Held Mutton","category":"FOOD","lat":40.8560,"lng":111.7320,"description":"Renowned restaurant for boiled mutton ribs","priceLevel":3},{"name":"焙子铺","nameEn":"Beizi Bakery","category":"FOOD","lat":40.8200,"lng":111.6680,"description":"Local stall for crusty baked beizi bread","priceLevel":1},{"name":"大召寺","nameEn":"Dazhao Temple","category":"ATTRACTION","lat":40.8090,"lng":111.6560,"description":"Grand Ming-era Tibetan Buddhist temple","priceLevel":1},{"name":"昭君墓","nameEn":"Zhaojun Tomb","category":"ATTRACTION","lat":40.7560,"lng":111.6420,"description":"Tomb honoring Han envoy Wang Zhaojun","priceLevel":2},{"name":"内蒙古博物院","nameEn":"Inner Mongolia Museum","category":"ATTRACTION","lat":40.8470,"lng":111.7060,"description":"Major museum of Mongolian and dinosaur exhibits","priceLevel":1},{"name":"席力图召","nameEn":"Xilitu Zhao Temple","category":"ATTRACTION","lat":40.8100,"lng":111.6600,"description":"Historic temple with grand prayer hall","priceLevel":1},{"name":"五塔寺","nameEn":"Five Pagoda Temple","category":"ATTRACTION","lat":40.8060,"lng":111.6650,"description":"Temple with carved five-pagoda stone tower","priceLevel":1},{"name":"将军衙署","nameEn":"General's Government Office","category":"ATTRACTION","lat":40.8180,"lng":111.6720,"description":"Qing dynasty military governor's restored office","priceLevel":1},{"name":"塞上老街","nameEn":"Saishang Old Street","category":"ATTRACTION","lat":40.8110,"lng":111.6540,"description":"Historic street with antiques and architecture","priceLevel":1},{"name":"昭君博物院","nameEn":"Zhaojun Museum","category":"ATTRACTION","lat":40.7550,"lng":111.6430,"description":"Museum complex around the Zhaojun Tomb","priceLevel":2},{"name":"大青山","nameEn":"Daqing Mountain","category":"ATTRACTION","lat":40.9200,"lng":111.6800,"description":"Mountain range with hiking and scenery","priceLevel":1},{"name":"清真大寺","nameEn":"Hohhot Grand Mosque","category":"ATTRACTION","lat":40.8160,"lng":111.6610,"description":"Historic mosque blending Chinese and Islamic design","priceLevel":1},{"name":"哈达门高原牧场","nameEn":"Hadamen Highland Pasture","category":"ATTRACTION","lat":40.9650,"lng":111.5800,"description":"Grassland pasture with horse riding","priceLevel":2},{"name":"内蒙古科技馆","nameEn":"Inner Mongolia Science Museum","category":"ATTRACTION","lat":40.8520,"lng":111.7010,"description":"Interactive science museum on the central square","priceLevel":1}]}]
