[{"cityNameEn":"Chengdu","places":[{"name":"陈麻婆豆腐(骡马市店)","nameEn":"Chen Mapo Tofu","category":"FOOD","lat":30.6680,"lng":104.0720,"description":"Birthplace of the famous Sichuan mapo tofu dish","priceLevel":2},{"name":"龙抄手(春熙路总店)","nameEn":"Long Chaoshou","category":"FOOD","lat":30.6505,"lng":104.0815,"description":"Famous wontons and Sichuan snacks since 1941","priceLevel":2},{"name":"钟水饺","nameEn":"Zhong Dumplings","category":"FOOD","lat":30.6512,"lng":104.0805,"description":"Iconic spicy red-oil dumplings, a Chengdu classic","priceLevel":2},{"name":"夫妻肺片(总府路店)","nameEn":"Fuqi Feipian","category":"FOOD","lat":30.6585,"lng":104.0790,"description":"Famous cold spiced beef offal appetizer","priceLevel":2},{"name":"小谭豆花","nameEn":"Xiaotan Douhua","category":"FOOD","lat":30.6620,"lng":104.0680,"description":"Beloved old-school tofu pudding and snacks","priceLevel":1},{"name":"蜀九香火锅(玉双路店)","nameEn":"Shujiuxiang Hotpot","category":"FOOD","lat":30.6650,"lng":104.0950,"description":"Popular authentic Sichuan spicy hotpot chain","priceLevel":3},{"name":"老码头火锅","nameEn":"Laomatou Hotpot","category":"FOOD","lat":30.6450,"lng":104.0870,"description":"Renowned spicy Chongqing-style hotpot restaurant","priceLevel":3},{"name":"马旺子川菜","nameEn":"Mawangzi Sichuan Cuisine","category":"FOOD","lat":30.6730,"lng":104.0850,"description":"Upscale refined traditional Sichuan dishes","priceLevel":3},{"name":"甘记肥肠粉","nameEn":"Ganji Feichang Fen","category":"FOOD","lat":30.6560,"lng":104.0640,"description":"Famous sweet-potato noodles with pork intestine","priceLevel":1},{"name":"严太婆锅盔","nameEn":"Yan Taipo Guokui","category":"FOOD","lat":30.6595,"lng":104.0760,"description":"Crispy stuffed flatbread street snack","priceLevel":1},{"name":"贺记蛋烘糕","nameEn":"Heji Egg Cake","category":"FOOD","lat":30.6540,"lng":104.0700,"description":"Classic Chengdu egg-batter mini pancakes","priceLevel":1},{"name":"火宫殿钵钵鸡","nameEn":"Bobo Chicken","category":"FOOD","lat":30.6480,"lng":104.0620,"description":"Cold skewers in spicy sesame chili broth","priceLevel":2},{"name":"成都大熊猫繁育研究基地","nameEn":"Chengdu Panda Base","category":"ATTRACTION","lat":30.7330,"lng":104.1450,"description":"World-famous giant panda breeding and research center","priceLevel":2},{"name":"武侯祠","nameEn":"Wuhou Shrine","category":"ATTRACTION","lat":30.6464,"lng":104.0480,"description":"Historic shrine honoring Three Kingdoms heroes","priceLevel":2},{"name":"锦里古街","nameEn":"Jinli Ancient Street","category":"ATTRACTION","lat":30.6440,"lng":104.0490,"description":"Bustling restored old street with snacks and crafts","priceLevel":1},{"name":"宽窄巷子","nameEn":"Kuanzhai Alley","category":"ATTRACTION","lat":30.6695,"lng":104.0560,"description":"Historic Qing-era alleys with teahouses and shops","priceLevel":1},{"name":"杜甫草堂","nameEn":"Du Fu Thatched Cottage","category":"ATTRACTION","lat":30.6595,"lng":104.0270,"description":"Former home of the great Tang poet Du Fu","priceLevel":2},{"name":"青羊宫","nameEn":"Qingyang Palace","category":"ATTRACTION","lat":30.6650,"lng":104.0340,"description":"Ancient and important Taoist temple in Chengdu","priceLevel":1},{"name":"成都人民公园","nameEn":"People's Park","category":"ATTRACTION","lat":30.6620,"lng":104.0560,"description":"Popular park famous for its lakeside teahouse","priceLevel":1},{"name":"金沙遗址博物馆","nameEn":"Jinsha Site Museum","category":"ATTRACTION","lat":30.6810,"lng":104.0130,"description":"Ancient Shu civilization archaeological treasures museum","priceLevel":2},{"name":"四川博物院","nameEn":"Sichuan Museum","category":"ATTRACTION","lat":30.6640,"lng":104.0230,"description":"Largest comprehensive museum in southwest China","priceLevel":1},{"name":"成都春熙路","nameEn":"Chunxi Road","category":"ATTRACTION","lat":30.6520,"lng":104.0810,"description":"Iconic downtown shopping and pedestrian district","priceLevel":1},{"name":"望江楼公园","nameEn":"Wangjianglou Park","category":"ATTRACTION","lat":30.6310,"lng":104.0900,"description":"Riverside park with bamboo and historic tower","priceLevel":1},{"name":"东郊记忆","nameEn":"Eastern Suburb Memory","category":"ATTRACTION","lat":30.6580,"lng":104.1300,"description":"Industrial-era complex turned arts and culture park","priceLevel":1}]},{"cityNameEn":"Guiyang","places":[{"name":"丝恋红汤丝娃娃","nameEn":"Siwawa Rice Rolls","category":"FOOD","lat":26.5780,"lng":106.7080,"description":"Guizhou wrapped vegetable rice rolls specialty","priceLevel":2},{"name":"老凯里酸汤鱼","nameEn":"Laokaili Sour Fish Soup","category":"FOOD","lat":26.5850,"lng":106.7050,"description":"Famous Guizhou sour-soup fish hotpot","priceLevel":2},{"name":"花溪王记牛肉粉","nameEn":"Huaxi Beef Noodles","category":"FOOD","lat":26.5600,"lng":106.6900,"description":"Classic Guizhou beef rice-noodle soup","priceLevel":1},{"name":"恋爱豆腐果","nameEn":"Love Tofu","category":"FOOD","lat":26.5790,"lng":106.7100,"description":"Grilled stuffed tofu, a beloved street snack","priceLevel":1},{"name":"程肠旺(肠旺面)","nameEn":"Changwang Noodles","category":"FOOD","lat":26.5820,"lng":106.7000,"description":"Signature pork intestine and blood noodles","priceLevel":1},{"name":"青云路夜市","nameEn":"Qingyun Road Night Snacks","category":"FOOD","lat":26.5740,"lng":106.7150,"description":"Famous night-market street food strip","priceLevel":2},{"name":"亮欢寨酸汤鱼","nameEn":"Lianghuanzhai Sour Fish","category":"FOOD","lat":26.6050,"lng":106.6950,"description":"Well-known Miao-style sour soup fish restaurant","priceLevel":3},{"name":"丝丝洋芋粑","nameEn":"Potato Cakes","category":"FOOD","lat":26.5810,"lng":106.7090,"description":"Crispy fried potato snack local favorite","priceLevel":1},{"name":"留一手烤鱼","nameEn":"Liuyishou Grilled Fish","category":"FOOD","lat":26.6100,"lng":106.6500,"description":"Popular spicy grilled fish restaurant","priceLevel":2},{"name":"卷粉小吃","nameEn":"Juanfen Rice Rolls","category":"FOOD","lat":26.5760,"lng":106.7120,"description":"Steamed rice rolls with savory spicy sauce","priceLevel":1},{"name":"贵三宝丝娃娃","nameEn":"Guisanbao Siwawa","category":"FOOD","lat":26.5950,"lng":106.7060,"description":"Famous chain for Guizhou-style rice rolls","priceLevel":2},{"name":"素粉店","nameEn":"Sufen Noodles","category":"FOOD","lat":26.5700,"lng":106.7030,"description":"Cold vegetarian rice noodles street classic","priceLevel":1},{"name":"甲秀楼","nameEn":"Jiaxiu Tower","category":"ATTRACTION","lat":26.5670,"lng":106.7110,"description":"Iconic riverside Ming-dynasty tower landmark","priceLevel":1},{"name":"黔灵山公园","nameEn":"Qianling Park","category":"ATTRACTION","lat":26.5980,"lng":106.7000,"description":"Mountain park with monkeys, lake and temple","priceLevel":1},{"name":"贵阳花溪公园","nameEn":"Huaxi Park","category":"ATTRACTION","lat":26.4350,"lng":106.6700,"description":"Scenic park with rivers, hills and pavilions","priceLevel":1},{"name":"青岩古镇","nameEn":"Qingyan Ancient Town","category":"ATTRACTION","lat":26.3580,"lng":106.6850,"description":"Well-preserved Ming-dynasty stone fortress town","priceLevel":2},{"name":"弘福寺","nameEn":"Hongfu Temple","category":"ATTRACTION","lat":26.6010,"lng":106.7030,"description":"Historic Buddhist temple atop Qianling Mountain","priceLevel":1},{"name":"贵州省博物馆","nameEn":"Guizhou Provincial Museum","category":"ATTRACTION","lat":26.6150,"lng":106.6450,"description":"Regional history and ethnic culture museum","priceLevel":1},{"name":"文昌阁","nameEn":"Wenchang Pavilion","category":"ATTRACTION","lat":26.5750,"lng":106.7200,"description":"Historic Ming-era pavilion on old city wall","priceLevel":1},{"name":"天河潭","nameEn":"Tianhetan Scenic Area","category":"ATTRACTION","lat":26.4650,"lng":106.5650,"description":"Karst caves, waterfalls and water scenery","priceLevel":2},{"name":"贵阳森林公园","nameEn":"Guiyang Forest Park","category":"ATTRACTION","lat":26.5550,"lng":106.7450,"description":"Large urban forest park with hiking trails","priceLevel":1},{"name":"喷水池","nameEn":"Penshuichi Square","category":"ATTRACTION","lat":26.5870,"lng":106.7080,"description":"Central downtown landmark and commercial hub","priceLevel":1},{"name":"南江大峡谷","nameEn":"Nanjiang Grand Canyon","category":"ATTRACTION","lat":26.8050,"lng":106.9650,"description":"Dramatic canyon with waterfalls and cliffs","priceLevel":2},{"name":"阳明祠","nameEn":"Yangming Shrine","category":"ATTRACTION","lat":26.5830,"lng":106.7250,"description":"Shrine honoring philosopher Wang Yangming","priceLevel":1}]},{"cityNameEn":"Guilin","places":[{"name":"崇善米粉","nameEn":"Chongshan Rice Noodles","category":"FOOD","lat":25.2790,"lng":110.2960,"description":"Famous Guilin rice noodles, a local institution","priceLevel":1},{"name":"石记米粉","nameEn":"Shiji Rice Noodles","category":"FOOD","lat":25.2810,"lng":110.2900,"description":"Beloved classic Guilin rice noodle shop","priceLevel":1},{"name":"日清饭店","nameEn":"Riqing Restaurant","category":"FOOD","lat":25.2750,"lng":110.2950,"description":"Old established restaurant for local Guilin dishes","priceLevel":2},{"name":"椿记烧鹅","nameEn":"Chunji Roast Goose","category":"FOOD","lat":25.2680,"lng":110.2980,"description":"Popular restaurant famed for roast goose","priceLevel":2},{"name":"漓江啤酒鱼","nameEn":"Beer Fish Restaurant","category":"FOOD","lat":25.2700,"lng":110.2880,"description":"Yangshuo-style beer fish, a regional signature","priceLevel":2},{"name":"又一轩","nameEn":"Youyixuan Restaurant","category":"FOOD","lat":25.2820,"lng":110.2870,"description":"Long-running classic Guilin cuisine restaurant","priceLevel":2},{"name":"尼姑面","nameEn":"Nigu Noodles","category":"FOOD","lat":25.2770,"lng":110.3010,"description":"Famous vegetarian-style Guilin rice noodles","priceLevel":1},{"name":"老地方饭店","nameEn":"Laodifang Restaurant","category":"FOOD","lat":25.2730,"lng":110.2920,"description":"Homestyle Guilin dishes loved by locals","priceLevel":2},{"name":"正阳汤城","nameEn":"Zhengyang Soup City","category":"FOOD","lat":25.2760,"lng":110.2990,"description":"Popular spot on famous Zhengyang pedestrian street","priceLevel":2},{"name":"王城田螺","nameEn":"Wangcheng River Snails","category":"FOOD","lat":25.2800,"lng":110.2940,"description":"Spicy stuffed river snails local delicacy","priceLevel":2},{"name":"桂林人米粉","nameEn":"Guilinren Rice Noodles","category":"FOOD","lat":25.2660,"lng":110.2900,"description":"Well-known chain serving classic rice noodles","priceLevel":1},{"name":"婆婆面馆","nameEn":"Popo Noodle House","category":"FOOD","lat":25.2840,"lng":110.3000,"description":"Cozy local noodle shop with horse-meat noodles","priceLevel":1},{"name":"漓江","nameEn":"Li River","category":"ATTRACTION","lat":25.2500,"lng":110.3100,"description":"Stunning karst river cruise to Yangshuo","priceLevel":2},{"name":"象鼻山","nameEn":"Elephant Trunk Hill","category":"ATTRACTION","lat":25.2580,"lng":110.2940,"description":"Iconic hill shaped like a drinking elephant","priceLevel":2},{"name":"两江四湖","nameEn":"Two Rivers Four Lakes","category":"ATTRACTION","lat":25.2790,"lng":110.2890,"description":"Scenic lake circuit with illuminated pagodas","priceLevel":2},{"name":"日月双塔","nameEn":"Sun and Moon Pagodas","category":"ATTRACTION","lat":25.2730,"lng":110.2960,"description":"Golden and silver lakeside twin pagodas","priceLevel":1},{"name":"靖江王城","nameEn":"Jingjiang Princes' City","category":"ATTRACTION","lat":25.2840,"lng":110.2980,"description":"Ming-dynasty royal palace with Solitary Beauty Peak","priceLevel":2},{"name":"独秀峰","nameEn":"Solitary Beauty Peak","category":"ATTRACTION","lat":25.2850,"lng":110.2990,"description":"Towering peak with panoramic city views","priceLevel":2},{"name":"七星公园","nameEn":"Seven Star Park","category":"ATTRACTION","lat":25.2790,"lng":110.3120,"description":"Largest park with caves, hills and zoo","priceLevel":1},{"name":"芦笛岩","nameEn":"Reed Flute Cave","category":"ATTRACTION","lat":25.3050,"lng":110.2620,"description":"Spectacular illuminated limestone cave formations","priceLevel":2},{"name":"伏波山","nameEn":"Fubo Hill","category":"ATTRACTION","lat":25.2820,"lng":110.2930,"description":"Riverside hill with caves and Buddhist carvings","priceLevel":1},{"name":"叠彩山","nameEn":"Diecai Hill","category":"ATTRACTION","lat":25.2920,"lng":110.2930,"description":"Layered hill with great panoramic city views","priceLevel":1},{"name":"东西巷","nameEn":"East West Alley","category":"ATTRACTION","lat":25.2830,"lng":110.2970,"description":"Restored historic alley with shops and snacks","priceLevel":1},{"name":"正阳步行街","nameEn":"Zhengyang Pedestrian Street","category":"ATTRACTION","lat":25.2770,"lng":110.2980,"description":"Lively central pedestrian shopping and food street","priceLevel":1}]},{"cityNameEn":"Haikou","places":[{"name":"琼菜王美食村","nameEn":"Qiongcaiwang Restaurant","category":"FOOD","lat":20.0280,"lng":110.3350,"description":"Famous Hainan cuisine including Wenchang chicken","priceLevel":2},{"name":"四更烤乳猪","nameEn":"Sigeng Roast Pig","category":"FOOD","lat":20.0400,"lng":110.3200,"description":"Renowned crispy Hainan roast suckling pig","priceLevel":3},{"name":"老爸茶店","nameEn":"Laoba Tea House","category":"FOOD","lat":20.0440,"lng":110.2950,"description":"Traditional Hainan old-dad tea and snacks","priceLevel":1},{"name":"龙泉海鲜","nameEn":"Longquan Seafood","category":"FOOD","lat":20.0220,"lng":110.3450,"description":"Popular large restaurant for Hainan seafood","priceLevel":3},{"name":"骑楼小吃街","nameEn":"Qilou Snack Street","category":"FOOD","lat":20.0460,"lng":110.2920,"description":"Bustling food court of Hainan street snacks","priceLevel":1},{"name":"海南粉店","nameEn":"Hainan Rice Noodles","category":"FOOD","lat":20.0410,"lng":110.3000,"description":"Classic Hainan rice noodles with savory gravy","priceLevel":1},{"name":"文昌鸡饭店","nameEn":"Wenchang Chicken Restaurant","category":"FOOD","lat":20.0350,"lng":110.3300,"description":"Signature poached Wenchang chicken specialty","priceLevel":2},{"name":"清补凉摊","nameEn":"Qingbuliang Dessert","category":"FOOD","lat":20.0480,"lng":110.3050,"description":"Refreshing Hainan coconut milk dessert soup","priceLevel":1},{"name":"抱罗粉店","nameEn":"Baoluo Noodles","category":"FOOD","lat":20.0390,"lng":110.3150,"description":"Famous wide rice noodles from Wenchang","priceLevel":1},{"name":"陵水酸粉","nameEn":"Lingshui Sour Noodles","category":"FOOD","lat":20.0430,"lng":110.3250,"description":"Tangy spicy Hainan-style noodle dish","priceLevel":1},{"name":"金牌龙虾酒楼","nameEn":"Golden Lobster Restaurant","category":"FOOD","lat":20.0180,"lng":110.3500,"description":"Upscale seafood and lobster dining","priceLevel":4},{"name":"和乐蟹餐厅","nameEn":"Hele Crab Restaurant","category":"FOOD","lat":20.0300,"lng":110.3400,"description":"Famous Hainan Hele crab seafood restaurant","priceLevel":3},{"name":"骑楼老街","nameEn":"Qilou Old Street","category":"ATTRACTION","lat":20.0450,"lng":110.2920,"description":"Historic arcade-style colonial-era shopping streets","priceLevel":1},{"name":"五公祠","nameEn":"Five Officials Temple","category":"ATTRACTION","lat":20.0080,"lng":110.3580,"description":"Historic shrine honoring exiled Tang-Song officials","priceLevel":1},{"name":"海口钟楼","nameEn":"Haikou Clock Tower","category":"ATTRACTION","lat":20.0470,"lng":110.2940,"description":"Riverside landmark clock tower from 1929","priceLevel":1},{"name":"假日海滩","nameEn":"Holiday Beach","category":"ATTRACTION","lat":20.0530,"lng":110.2550,"description":"Popular city beach for swimming and sunset","priceLevel":1},{"name":"海南省博物馆","nameEn":"Hainan Provincial Museum","category":"ATTRACTION","lat":20.0260,"lng":110.3650,"description":"Island history and ethnic culture museum","priceLevel":1},{"name":"海口火山群世界地质公园","nameEn":"Volcanic Cluster Geopark","category":"ATTRACTION","lat":19.9950,"lng":110.2150,"description":"Dormant volcano craters and lava landscapes","priceLevel":2},{"name":"万绿园","nameEn":"Evergreen Park","category":"ATTRACTION","lat":20.0420,"lng":110.3300,"description":"Large seaside park with tropical greenery","priceLevel":1},{"name":"海瑞墓","nameEn":"Hai Rui Tomb","category":"ATTRACTION","lat":20.0030,"lng":110.3050,"description":"Tomb of famous upright Ming-dynasty official","priceLevel":1},{"name":"骑楼文化展示馆","nameEn":"Qilou Culture Hall","category":"ATTRACTION","lat":20.0455,"lng":110.2910,"description":"Exhibition on Haikou's historic arcade architecture","priceLevel":1},{"name":"海口湾","nameEn":"Haikou Bay","category":"ATTRACTION","lat":20.0490,"lng":110.2880,"description":"Scenic waterfront promenade along the sea","priceLevel":1},{"name":"白沙门公园","nameEn":"Baishamen Park","category":"ATTRACTION","lat":20.0600,"lng":110.3150,"description":"Seaside park with beach and amusement rides","priceLevel":1},{"name":"水巷口","nameEn":"Shuixiangkou Lane","category":"ATTRACTION","lat":20.0460,"lng":110.2960,"description":"Historic lane in the old arcade district","priceLevel":1}]},{"cityNameEn":"Lhasa","places":[{"name":"玛吉阿米餐厅","nameEn":"Makye Ame Restaurant","category":"FOOD","lat":29.6530,"lng":91.1340,"description":"Famous yellow Tibetan restaurant near Barkhor","priceLevel":3},{"name":"光明港琼甜茶馆","nameEn":"Guangming Sweet Tea House","category":"FOOD","lat":29.6510,"lng":91.1300,"description":"Beloved bustling traditional Tibetan sweet tea house","priceLevel":1},{"name":"雪域餐厅","nameEn":"Snowland Restaurant","category":"FOOD","lat":29.6540,"lng":91.1320,"description":"Popular restaurant serving Tibetan and Nepali food","priceLevel":3},{"name":"拉萨厨房","nameEn":"Lhasa Kitchen","category":"FOOD","lat":29.6535,"lng":91.1335,"description":"Tibetan, Indian and Nepali cuisine favorite","priceLevel":2},{"name":"娜玛瑟德餐厅","nameEn":"Namaste Restaurant","category":"FOOD","lat":29.6525,"lng":91.1345,"description":"Popular Nepali and Tibetan dishes restaurant","priceLevel":2},{"name":"刚吉餐厅","nameEn":"Gangkyi Restaurant","category":"FOOD","lat":29.6550,"lng":91.1360,"description":"Cozy spot for momos and yak dishes","priceLevel":2},{"name":"藏家宴","nameEn":"Zangjiayan Tibetan Feast","category":"FOOD","lat":29.6480,"lng":91.1250,"description":"Traditional Tibetan banquet with performances","priceLevel":3},{"name":"仓姑寺甜茶馆","nameEn":"Ani Sangkhung Nunnery Tea House","category":"FOOD","lat":29.6500,"lng":91.1310,"description":"Famous nunnery courtyard sweet tea house","priceLevel":1},{"name":"夏帕咔啦藏餐","nameEn":"Shangri-La Tibetan Food","category":"FOOD","lat":29.6560,"lng":91.1290,"description":"Authentic Tibetan dishes and yak butter tea","priceLevel":2},{"name":"罗布林卡藏餐","nameEn":"Norbulingka Tibetan Restaurant","category":"FOOD","lat":29.6555,"lng":91.1280,"description":"Local Tibetan meals near Norbulingka palace","priceLevel":2},{"name":"萨布瑞餐厅","nameEn":"Sabriye Restaurant","category":"FOOD","lat":29.6520,"lng":91.1350,"description":"Cozy cafe with Tibetan and western food","priceLevel":2},{"name":"古修哪藏餐厅","nameEn":"Gusxiuna Tibetan Restaurant","category":"FOOD","lat":29.6545,"lng":91.1370,"description":"Homestyle Tibetan cuisine near the old town","priceLevel":2},{"name":"布达拉宫","nameEn":"Potala Palace","category":"ATTRACTION","lat":29.6558,"lng":91.1170,"description":"Iconic former palace of the Dalai Lamas","priceLevel":2},{"name":"大昭寺","nameEn":"Jokhang Temple","category":"ATTRACTION","lat":29.6530,"lng":91.1310,"description":"Holiest temple in Tibetan Buddhism","priceLevel":2},{"name":"八廓街","nameEn":"Barkhor Street","category":"ATTRACTION","lat":29.6535,"lng":91.1320,"description":"Sacred pilgrimage circuit and lively market street","priceLevel":1},{"name":"罗布林卡","nameEn":"Norbulingka","category":"ATTRACTION","lat":29.6560,"lng":91.1010,"description":"Summer palace and garden of the Dalai Lamas","priceLevel":2},{"name":"色拉寺","nameEn":"Sera Monastery","category":"ATTRACTION","lat":29.6920,"lng":91.1320,"description":"Major monastery famous for monk debates","priceLevel":2},{"name":"哲蚌寺","nameEn":"Drepung Monastery","category":"ATTRACTION","lat":29.6750,"lng":91.0500,"description":"One of Tibet's largest and most important monasteries","priceLevel":2},{"name":"药王山","nameEn":"Chakpori Hill","category":"ATTRACTION","lat":29.6555,"lng":91.1140,"description":"Best viewpoint for photographing the Potala Palace","priceLevel":1},{"name":"西藏博物馆","nameEn":"Tibet Museum","category":"ATTRACTION","lat":29.6500,"lng":91.1030,"description":"Comprehensive museum of Tibetan history and culture","priceLevel":1},{"name":"宗角禄康公园","nameEn":"Zongjiao Lukang Park","category":"ATTRACTION","lat":29.6590,"lng":91.1180,"description":"Tranquil park and lake behind Potala Palace","priceLevel":1},{"name":"小昭寺","nameEn":"Ramoche Temple","category":"ATTRACTION","lat":29.6580,"lng":91.1340,"description":"Historic temple second only to Jokhang","priceLevel":1},{"name":"清真大寺","nameEn":"Lhasa Grand Mosque","category":"ATTRACTION","lat":29.6520,"lng":91.1380,"description":"Historic mosque serving Lhasa's Hui community","priceLevel":1},{"name":"甘丹寺","nameEn":"Ganden Monastery","category":"ATTRACTION","lat":29.7580,"lng":91.4750,"description":"First Gelug monastery on a scenic mountain","priceLevel":2}]}]
